[
    {
      "userId": 1,
      "name": "Nature Nook",
      "address": "708 Plumb Branch St.",
      "city": "Fairfield",
      "state": "CA",
      "zipCode": "94533",
      "priceRange": 3,
      "businessHours": "Mon 08:00-17:00\nTue 08:00-17:00\nWed 08:00-17:00\nThu 08:00-17:00\nFri 08:00-17:00\nSat Closed\nSun Closed",
      "email": "naturenook@example.com",
      "phoneNumber": "(555) 123-4567",
      "description": "Connect with nature at our cozy nook!",
      "searchImageUrl": "https://crittr-images.s3.us-west-1.amazonaws.com/rooster-grid.jpg",
      "coverImageUrl": "https://crittr-images.s3.us-west-1.amazonaws.com/rooster-cover.jpg",
      "businessImageUrl": "https://crittr-images.s3.us-west-1.amazonaws.com/rooster-square.jpg",
      "pickup": true,
      "delivery": true
    },
    {
      "userId": 2,
      "name": "School of Pets",
      "address": "51 School St.",
      "city": "Lompoc",
      "state": "CA",
      "zipCode": "93436",
      "priceRange": 2,
      "businessHours": "Mon 08:00-17:00\nTue 08:00-17:00\nWed 08:00-17:00\nThu 08:00-17:00\nFri 08:00-17:00\nSat Closed\nSun Closed",
      "email": "schoolofpets@example.com",
      "phoneNumber": "(555) 234-5678",
      "description": "Where every pet gets an A+!",
      "searchImageUrl": "https://crittr-images.s3.us-west-1.amazonaws.com/poodle-cover.jpg",
      "coverImageUrl": "https://crittr-images.s3.us-west-1.amazonaws.com/spinx-cat-cover.webp",
      "businessImageUrl": "https://crittr-images.s3.us-west-1.amazonaws.com/bengal-cat-profile.jpg",
      "pickup": true,
      "delivery": false
    },
    {
      "userId": 3,
      "name": "Brewery Barks",
      "address": "729 Brewery Avenue",
      "city": "Los Angeles",
      "state": "CA",
      "zipCode": "90034",
      "priceRange": 4,
      "businessHours": "Mon 08:00-17:00\nTue 08:00-17:00\nWed 08:00-17:00\nThu 08:00-17:00\nFri 08:00-17:00\nSat Closed\nSun Closed",
      "email": "brewerybarks@example.com",
      "phoneNumber": "(555) 345-6789",
      "description": "Crafting happiness for your furry friends!",
      "searchImageUrl": "https://crittr-images.s3.us-west-1.amazonaws.com/puppies-grid.jpg",
      "coverImageUrl": "https://crittr-images.s3.us-west-1.amazonaws.com/puppies-cover.jpg",
      "businessImageUrl": "https://crittr-images.s3.us-west-1.amazonaws.com/puppies-square.jpg",
      "pickup": false,
      "delivery": true
    },
    {
      "userId": 4,
      "name": "Pennsylvania Paws",
      "address": "9466 Pennsylvania St.",
      "city": "Los Angeles",
      "state": "CA",
      "zipCode": "90003",
      "priceRange": 5,
      "businessHours": "Mon 08:00-17:00\nTue 08:00-17:00\nWed 08:00-17:00\nThu 08:00-17:00\nFri 08:00-17:00\nSat Closed\nSun Closed",
      "email": "pennsylvaniapaws@example.com",
      "phoneNumber": "(555) 456-7890",
      "description": "Where every pet is treated like royalty!",
      "searchImageUrl": "https://crittr-images.s3.us-west-1.amazonaws.com/kitten-grid.jpg",
      "coverImageUrl": "https://crittr-images.s3.us-west-1.amazonaws.com/kitten-cover.jpg",
      "businessImageUrl": "https://crittr-images.s3.us-west-1.amazonaws.com/kitten-square.jpg",
      "pickup": true,
      "delivery": true
    },
    {
      "userId": 5,
      "name": "Ridgeview Retreat",
      "address": "464 Ridgeview Drive",
      "city": "Los Angeles",
      "state": "CA",
      "zipCode": "90026",
      "priceRange": 1,
      "businessHours": "Mon 08:00-17:00\nTue 08:00-17:00\nWed 08:00-17:00\nThu 08:00-17:00\nFri 08:00-17:00\nSat Closed\nSun Closed",
      "email": "ridgeviewretreat@example.com",
      "phoneNumber": "(555) 567-8901",
      "description": "Retreat for pets, paradise for owners!",
      "searchImageUrl": "https://crittr-images.s3.us-west-1.amazonaws.com/lion-grid.webp",
      "coverImageUrl": "https://crittr-images.s3.us-west-1.amazonaws.com/hop-cover.jpg",
      "businessImageUrl": "https://crittr-images.s3.us-west-1.amazonaws.com/lion-square.webp",
      "pickup": false,
      "delivery": false
    },
    {
      "userId": 1,
      "name": "Saddle Street Pets",
      "address": "440 New Saddle Street",
      "city": "Cerritos",
      "state": "CA",
      "zipCode": "90703",
      "priceRange": 4,
      "businessHours": "Mon 08:00-17:00\nTue 08:00-17:00\nWed 08:00-17:00\nThu 08:00-17:00\nFri 08:00-17:00\nSat Closed\nSun Closed",
      "email": "saddlestreetpets@example.com",
      "phoneNumber": "(555) 678-9012",
      "description": "Ride into a world of pet joy on Saddle Street!",
      "searchImageUrl": "https://crittr-images.s3.us-west-1.amazonaws.com/goldfish-cover.webp",
      "coverImageUrl": "https://crittr-images.s3.us-west-1.amazonaws.com/betta-cover.jpg",
      "businessImageUrl": "https://crittr-images.s3.us-west-1.amazonaws.com/betta-square.jpg",
      "pickup": true,
      "delivery": true
    },
    {
      "userId": 2,
      "name": "Wild Horse Wonders",
      "address": "9108 South Wild Horse Street",
      "city": "West Deptford",
      "state": "NJ",
      "zipCode": "08096",
      "priceRange": 2,
      "businessHours": "Mon 08:00-17:00\nTue 08:00-17:00\nWed 08:00-17:00\nThu 08:00-17:00\nFri 08:00-17:00\nSat Closed\nSun Closed",
      "email": "wildhorsewonders@example.com",
      "phoneNumber": "(555) 789-0123",
      "description": "Where wild hearts and horses unite!",
      "searchImageUrl": "https://crittr-images.s3.us-west-1.amazonaws.com/horse.webp",
      "coverImageUrl": "https://crittr-images.s3.us-west-1.amazonaws.com/horse.webp",
      "businessImageUrl": "https://crittr-images.s3.us-west-1.amazonaws.com/horse.webp",
      "pickup": false,
      "delivery": false
    },
    {
      "userId": 3,
      "name": "Roberts Animal Haven",
      "address": "9678 Roberts Ave.",
      "city": "Grandville",
      "state": "MI",
      "zipCode": "49418",
      "priceRange": 3,
      "businessHours": "Mon 08:00-17:00\nTue 08:00-17:00\nWed 08:00-17:00\nThu 08:00-17:00\nFri 08:00-17:00\nSat Closed\nSun Closed",
      "email": "robertsanimalhaven@example.com",
      "phoneNumber": "(555) 890-1234",
      "description": "A haven for all creatures, big and small!",
      "searchImageUrl": "https://crittr-images.s3.us-west-1.amazonaws.com/betta-cover.jpg",
      "coverImageUrl": "https://crittr-images.s3.us-west-1.amazonaws.com/betta-cover.jpg",
      "businessImageUrl": "https://crittr-images.s3.us-west-1.amazonaws.com/betta-square.jpg",
      "pickup": true,
      "delivery": true
    },
    {
      "userId": 4,
      "name": "Bank Rd. Pets",
      "address": "124 West Bank Rd.",
      "city": "Englishtown",
      "state": "NJ",
      "zipCode": "07726",
      "priceRange": 5,
      "businessHours": "Mon 08:00-17:00\nTue 08:00-17:00\nWed 08:00-17:00\nThu 08:00-17:00\nFri 08:00-17:00\nSat Closed\nSun Closed",
      "email": "bankrdpets@example.com",
      "phoneNumber": "(555) 123-2345",
      "description": "Your pets' favorite bank of happiness!",
      "searchImageUrl": "https://crittr-images.s3.us-west-1.amazonaws.com/pomeranian-cover.jpg",
      "coverImageUrl": "https://crittr-images.s3.us-west-1.amazonaws.com/pomeranian-cover.jpg",
      "businessImageUrl": "https://crittr-images.s3.us-west-1.amazonaws.com/pomeranian-cover.jpg",
      "pickup": true,
      "delivery": false
    },
    {
      "userId": 5,
      "name": "Linden Court Critters",
      "address": "13 Linden Court",
      "city": "Dover",
      "state": "NH",
      "zipCode": "03820",
      "priceRange": 1,
      "businessHours": "Mon 08:00-17:00\nTue 08:00-17:00\nWed 08:00-17:00\nThu 08:00-17:00\nFri 08:00-17:00\nSat Closed\nSun Closed",
      "email": "lindencourtcritters@example.com",
      "phoneNumber": "(555) 234-3456",
      "description": "Discover critter joy at Linden Court!",
      "searchImageUrl": "https://crittr-images.s3.us-west-1.amazonaws.com/hop-grid.jpg",
      "coverImageUrl": "https://crittr-images.s3.us-west-1.amazonaws.com/hop-grid.jpg",
      "businessImageUrl": "https://crittr-images.s3.us-west-1.amazonaws.com/hop-grid.jpg",
      "pickup": false,
      "delivery": true
    },
    {
      "userId": 1,
      "name": "Del Monte Delights",
      "address": "8498 Del Monte Drive",
      "city": "Carrollton",
      "state": "GA",
      "zipCode": "30117",
      "priceRange": 4,
      "businessHours": "Mon 08:00-17:00\nTue 08:00-17:00\nWed 08:00-17:00\nThu 08:00-17:00\nFri 08:00-17:00\nSat Closed\nSun Closed",
      "email": "delmontedelights@example.com",
      "phoneNumber": "(555) 345-4567",
      "description": "Delight your pets with Del Monte!",
      "searchImageUrl": "https://crittr-images.s3.us-west-1.amazonaws.com/manatee-grid.jpg",
      "coverImageUrl": "https://crittr-images.s3.us-west-1.amazonaws.com/manatee-cover.jpg",
      "businessImageUrl": "https://crittr-images.s3.us-west-1.amazonaws.com/manatee-square.jpg",
      "pickup": true,
      "delivery": true
    },
    {
      "userId": 2,
      "name": "Amerige Animal Alley",
      "address": "7770 Amerige Street",
      "city": "Stoughton",
      "state": "MA",
      "zipCode": "02072",
      "priceRange": 2,
      "businessHours": "Mon 08:00-17:00\nTue 08:00-17:00\nWed 08:00-17:00\nThu 08:00-17:00\nFri 08:00-17:00\nSat Closed\nSun Closed",
      "email": "amerigeanimalalley@example.com",
      "phoneNumber": "(555) 456-5678",
      "description": "An alley of happiness for every animal!",
      "searchImageUrl": "https://crittr-images.s3.us-west-1.amazonaws.com/poodle-cover.jpg",
      "coverImageUrl": "https://crittr-images.s3.us-west-1.amazonaws.com/poodle-cover.jpg",
      "businessImageUrl": "https://crittr-images.s3.us-west-1.amazonaws.com/poodle-cover.jpg",
      "pickup": false,
      "delivery": false
    },
    {
      "userId": 3,
      "name": "Manchester Menagerie",
      "address": "7312 Manchester Road",
      "city": "Elizabethton",
      "state": "TN",
      "zipCode": "37643",
      "priceRange": 3,
      "businessHours": "Mon 08:00-17:00\nTue 08:00-17:00\nWed 08:00-17:00\nThu 08:00-17:00\nFri 08:00-17:00\nSat Closed\nSun Closed",
      "email": "manchestermenagerie@example.com",
      "phoneNumber": "(555) 567-6789",
      "description": "A menagerie for the heart and soul!",
      "searchImageUrl": "https://crittr-images.s3.us-west-1.amazonaws.com/monkey-grid.jpg",
      "coverImageUrl": "https://crittr-images.s3.us-west-1.amazonaws.com/monkey-cover.jpg",
      "businessImageUrl": "https://crittr-images.s3.us-west-1.amazonaws.com/monkey-square.jpg",
      "pickup": true,
      "delivery": true
    },
    {
      "userId": 4,
      "name": "Cottage Companions",
      "address": "654 Cottage Dr.",
      "city": "Erie",
      "state": "PA",
      "zipCode": "16506",
      "priceRange": 1,
      "businessHours": "Mon 08:00-17:00\nTue 08:00-17:00\nWed 08:00-17:00\nThu 08:00-17:00\nFri 08:00-17:00\nSat Closed\nSun Closed",
      "email": "cottagecompanions@example.com",
      "phoneNumber": "(555) 678-9012",
      "description": "Companionship in every corner!",
      "searchImageUrl": "https://crittr-images.s3.us-west-1.amazonaws.com/husky-search.webp",
      "coverImageUrl": "https://crittr-images.s3.us-west-1.amazonaws.com/pomeranian-cover.jpg",
      "businessImageUrl": "https://crittr-images.s3.us-west-1.amazonaws.com/hop-square.jpg",
      "pickup": true,
      "delivery": false
    },
    {
        "userId": 5,
        "name": "Laurel Street Pets",
        "address": "49 Laurel St.",
        "city": "Fort Lauderdale",
        "state": "FL",
        "zipCode": "33308",
        "priceRange": 3,
        "businessHours": "Mon 08:00-17:00\nTue 08:00-17:00\nWed 08:00-17:00\nThu 08:00-17:00\nFri 08:00-17:00\nSat Closed\nSun Closed",
        "email": "laurelstreetpets@example.com",
        "phoneNumber": "(555) 678-9012",
        "description": "Pet paradise on Laurel Street!",
        "searchImageUrl": "https://crittr-images.s3.us-west-1.amazonaws.com/turtle.webp",
        "coverImageUrl": "https://crittr-images.s3.us-west-1.amazonaws.com/turtle.webp",
        "businessImageUrl": "https://crittr-images.s3.us-west-1.amazonaws.com/turtle.webp",
        "pickup": true,
        "delivery": true
      },
      {
        "userId": 1,
        "name": "Glen Ridge Critters",
        "address": "9698 Glen Ridge Road",
        "city": "Bridgeton",
        "state": "NJ",
        "zipCode": "08302",
        "priceRange": 2,
        "businessHours": "Mon 08:00-17:00\nTue 08:00-17:00\nWed 08:00-17:00\nThu 08:00-17:00\nFri 08:00-17:00\nSat Closed\nSun Closed",
        "email": "glenridgecritters@example.com",
        "phoneNumber": "(555) 789-0123",
        "description": "Critters enjoying the views at Glen Ridge!",
        "searchImageUrl": "https://crittr-images.s3.us-west-1.amazonaws.com/cute.jpg",
        "coverImageUrl": "https://crittr-images.s3.us-west-1.amazonaws.com/chillin_cropped.jpg",
        "businessImageUrl": "https://crittr-images.s3.us-west-1.amazonaws.com/thirsty.jpg",
        "pickup": false,
        "delivery": false
      },
      {
        "userId": 2,
        "name": "Goldfield Pets",
        "address": "10 Goldfield St.",
        "city": "Elizabeth City",
        "state": "NC",
        "zipCode": "27909",
        "priceRange": 3,
        "businessHours": "Mon 08:00-17:00\nTue 08:00-17:00\nWed 08:00-17:00\nThu 08:00-17:00\nFri 08:00-17:00\nSat Closed\nSun Closed",
        "email": "goldfieldpets@example.com",
        "phoneNumber": "(555) 890-1234",
        "description": "Discover pets at their finest on Goldfield Street!",
        "searchImageUrl": "https://crittr-images.s3.us-west-1.amazonaws.com/kitten-grid.jpg",
        "coverImageUrl": "https://crittr-images.s3.us-west-1.amazonaws.com/kitten-grid.jpg",
        "businessImageUrl": "https://crittr-images.s3.us-west-1.amazonaws.com/kitten-grid.jpg",
        "pickup": true,
        "delivery": false
      },
      {
        "userId": 3,
        "name": "Carpenter Street Critters",
        "address": "235 Carpenter Street",
        "city": "Morgantown",
        "state": "WV",
        "zipCode": "26508",
        "priceRange": 4,
        "businessHours": "Mon 08:00-17:00\nTue 08:00-17:00\nWed 08:00-17:00\nThu 08:00-17:00\nFri 08:00-17:00\nSat Closed\nSun Closed",
        "email": "carpenterstreetcritters@example.com",
        "phoneNumber": "(555) 901-2345",
        "description": "Critters in harmony on Carpenter Street!",
        "searchImageUrl": "https://crittr-images.s3.us-west-1.amazonaws.com/frilled-dragon.jpg",
        "coverImageUrl": "https://crittr-images.s3.us-west-1.amazonaws.com/frilled-dragon.jpg",
        "businessImageUrl": "https://crittr-images.s3.us-west-1.amazonaws.com/frilled-dragon.jpg",
        "pickup": false,
        "delivery": true
      },
      {
        "userId": 4,
        "name": "Rockwell Drive Pets",
        "address": "659 Rockwell Dr.",
        "city": "East Hartford",
        "state": "CT",
        "zipCode": "06118",
        "priceRange": 3,
        "businessHours": "Mon 08:00-17:00\nTue 08:00-17:00\nWed 08:00-17:00\nThu 08:00-17:00\nFri 08:00-17:00\nSat Closed\nSun Closed",
        "email": "rockwelldrivepets@example.com",
        "phoneNumber": "(555) 234-5678",
        "description": "Pets enjoying life on Rockwell Drive!",
        "searchImageUrl": "https://crittr-images.s3.us-west-1.amazonaws.com/reptile-gang.jpg",
        "coverImageUrl": "https://crittr-images.s3.us-west-1.amazonaws.com/reptile-gang.jpg",
        "businessImageUrl": "https://crittr-images.s3.us-west-1.amazonaws.com/reptile-gang.jpg",
        "pickup": true,
        "delivery": true
      },
      {
        "userId": 5,
        "name": "Madison Avenue Critters",
        "address": "7255 Madison Ave.",
        "city": "Lake Charles",
        "state": "LA",
        "zipCode": "70605",
        "priceRange": 2,
        "businessHours": "Mon 08:00-17:00\nTue 08:00-17:00\nWed 08:00-17:00\nThu 08:00-17:00\nFri 08:00-17:00\nSat Closed\nSun Closed",
        "email": "madisonavenuecritters@example.com",
        "phoneNumber": "(555) 345-6789",
        "description": "Critters living their best life on Madison Avenue!",
        "searchImageUrl": "https://crittr-images.s3.us-west-1.amazonaws.com/kitten-grid.jpg",
        "coverImageUrl": "https://crittr-images.s3.us-west-1.amazonaws.com/kitten-grid.jpg",
        "businessImageUrl": "https://crittr-images.s3.us-west-1.amazonaws.com/kitten-grid.jpg",
        "pickup": false,
        "delivery": false
      }
    ]
